{
  "results": [
    {
      "_id": "575c41279675c3f0bb344f70",
      "name": "Studio",
      "description": "Mon chez moi :)",
      "picture": "http://192.168.175.2:5000/foodkeepers/studio.jpg",
      "location": {
        "street": "12 rue Grenette",
        "number": "",
        "apartment": "",
        "floor": "2",
        "additional": "",
        "infos": "",
        "city": "Annecy",
        "zipcode": 74000,
        "coordinates": [6.1249267, 45.8989733]
      }
    },
    {
      "_id": "575c41279675c3f0bb344f71",
      "name": "Coloc",
      "description": "La colocation de l'amour",
      "picture": "http://192.168.175.2:5000/foodkeepers/coloc.jpg",
      "location": {
        "street": "10 rue Grenette",
        "number": "",
        "apartment": "",
        "floor": "",
        "additional": "",
        "infos": "",
        "city": "Annecy",
        "zipcode": 74000,
        "coordinates": [6.1248505, 45.8988558]
      }
    },
    {
      "_id": "575c41279675c3f0bb344f72",
      "name": "Maison",
      "description": "Mon petit chez moi",
      "picture": "http://192.168.175.2:5000/foodkeepers/foodkeeper.jpg",
      "location": {
        "street": "9 rue Grenette",
        "number": "",
        "apartment": "",
        "floor": "",
        "additional": "",
        "infos": "",
        "city": "Annecy",
        "zipcode": 74000,
        "coordinates": [6.1248003, 45.8991176]
      }
    },
    {
      "_id": "575c41279675c3f0bb344f73",
      "name": "Maison",
      "description": "Mon petit chez moi",
      "picture": "http://192.168.175.2:5000/foodkeepers/foodkeeper.jpg",
      "location": {
        "street": "8 rue Grenette",
        "number": "",
        "apartment": "",
        "floor": "",
        "additional": "",
        "infos": "",
        "city": "Annecy",
        "zipcode": 74000,
        "coordinates": [6.123673300000064, 45.9033057]
      }
    },
    {
      "_id": "575c41279675c3f0bb344f74",
      "name": "Maison",
      "description": "Mon petit chez moi",
      "picture": "http://192.168.175.2:5000/foodkeepers/foodkeeper.jpg",
      "location": {
        "street": "8 rue Grenette",
        "number": "",
        "apartment": "",
        "floor": "",
        "additional": "",
        "infos": "",
        "city": "Annecy",
        "zipcode": 74000,
        "coordinates": [6.124829, 45.8989839]
      }
    },
    {
      "_id": "575c41279675c3f0bb344f75",
      "name": "Maison",
      "description": "Mon petit chez moi",
      "picture": "http://192.168.175.2:5000/foodkeepers/foodkeeper.jpg",
      "location": {
        "street": "2 rue Grenette",
        "number": "",
        "apartment": "",
        "floor": "",
        "additional": "",
        "infos": "",
        "city": "Annecy",
        "zipcode": 74000,
        "coordinates": [6.1244789, 45.8989792]
      }
    },
    {
      "_id": "575c41279675c3f0bb344f76",
      "name": "Maison",
      "description": "Mon petit chez moi",
      "picture": "http://192.168.175.2:5000/foodkeepers/foodkeeper.jpg",
      "location": {
        "street": "2 rue Grenette",
        "number": "",
        "apartment": "",
        "floor": "",
        "additional": "",
        "infos": "",
        "city": "Annecy",
        "zipcode": 74000,
        "coordinates": [6.1244789, 45.8989792]
      }
    },
    {
      "_id": "575c41279675c3f0bb344f77",
      "name": "Maison",
      "description": "Chez papa et maman",
      "picture": "http://192.168.175.2:5000/foodkeepers/maison.jpg",
      "location": {
        "street": "7 Chemin du Clos de l'Oratoire",
        "number": "",
        "apartment": "",
        "floor": "",
        "additional": "",
        "infos": "",
        "city": "Thonon-les-Bains",
        "zipcode": 74200,
        "coordinates": [6.4917467, 46.3841658]
      }
    },
    {
      "_id": "575c41279675c3f0bb344f78",
      "name": "Maison",
      "description": "Mon petit chez moi",
      "picture": "http://192.168.175.2:5000/foodkeepers/foodkeeper.jpg",
      "location": {
        "street": "14 Avenue de la Combe",
        "number": "",
        "apartment": "",
        "floor": "",
        "additional": "",
        "infos": "",
        "city": "Thonon-les-Bains",
        "zipcode": 74200,
        "coordinates": [6.4922677, 46.3839655]
      }
    },
    {
      "_id": "575c41279675c3f0bb344f79",
      "name": "Maison",
      "description": "Mon petit chez moi",
      "picture": "http://192.168.175.2:5000/foodkeepers/foodkeeper.jpg",
      "location": {
        "street": "9 Chemin du Clos de l'Oratoire",
        "number": "",
        "apartment": "",
        "floor": "",
        "additional": "",
        "infos": "",
        "city": "Thonon-les-Bains",
        "zipcode": 74200,
        "coordinates": [6.4918607, 46.3843874]
      }
    },
    {
      "_id": "575c41279675c3f0bb344f7a",
      "name": "Maison",
      "description": "Mon petit chez moi",
      "picture": "http://192.168.175.2:5000/foodkeepers/foodkeeper.jpg",
      "location": {
        "street": "13 Chemin des Ã‰pinanches",
        "number": "",
        "apartment": "",
        "floor": "",
        "additional": "",
        "infos": "",
        "city": "Thonon-les-Bains",
        "zipcode": 74200,
        "coordinates": [6.4931391, 46.3849505]
      }
    },
    {
      "_id": "575c41279675c3f0bb344f7b",
      "name": "Maison",
      "description": "Mon petit chez moi",
      "picture": "http://192.168.175.2:5000/foodkeepers/foodkeeper.jpg",
      "location": {
        "street": "42 Avenue de Ripaille",
        "number": "",
        "apartment": "",
        "floor": "",
        "additional": "",
        "infos": "",
        "city": "Thonon-les-Bains",
        "zipcode": 74200,
        "coordinates": [6.4924674, 46.3857529]
      }
    },
    {
      "_id": "575c41279675c3f0bb344f7c",
      "name": "Maison",
      "description": "Mon petit chez moi",
      "picture": "http://192.168.175.2:5000/foodkeepers/foodkeeper.jpg",
      "location": {
        "street": "23 Chemin de la Mulaz Bregand",
        "number": "",
        "apartment": "",
        "floor": "",
        "additional": "",
        "infos": "",
        "city": "Thonon-les-Bains",
        "zipcode": 74200,
        "coordinates": [6.4906812, 46.3838251]
      }
    },
    {
      "_id": "575c41279675c3f0bb344f7d",
      "name": "Maison",
      "description": "Mon petit chez moi",
      "picture": "http://192.168.175.2:5000/foodkeepers/foodkeeper.jpg",
      "location": {
        "street": "28 Chemin de la Mulaz Bregand",
        "number": "",
        "apartment": "",
        "floor": "",
        "additional": "",
        "infos": "",
        "city": "Thonon-les-Bains",
        "zipcode": 74200,
        "coordinates": [6.4910426, 46.3846925]
      }
    },
    {
      "_id": "575c41279675c3f0bb344f7e",
      "name": "Maison",
      "description": "Mon petit chez moi",
      "picture": "http://192.168.175.2:5000/foodkeepers/foodkeeper.jpg",
      "location": {
        "street": "10 Avenue des Harmonies",
        "number": "",
        "apartment": "",
        "floor": "",
        "additional": "",
        "infos": "",
        "city": "Cran-Gevrier",
        "zipcode": 74960,
        "coordinates": [6.1047809, 45.9059544]
      }
    },
    {
      "_id": "575c41279675c3f0bb344f7f",
      "name": "Maison",
      "description": "Mon petit chez moi",
      "picture": "http://192.168.175.2:5000/foodkeepers/foodkeeper.jpg",
      "location": {
        "street": "10 Avenue des Harmonies",
        "number": "",
        "apartment": "",
        "floor": "",
        "additional": "",
        "infos": "",
        "city": "Cran-Gevrier",
        "zipcode": 74960,
        "coordinates": [6.1047809, 45.9059544]
      }
    },
    {
      "_id": "575c41279675c3f0bb344f80",
      "name": "Maison",
      "description": "Mon petit chez moi",
      "picture": "http://192.168.175.2:5000/foodkeepers/foodkeeper.jpg",
      "location": {
        "street": "10 Avenue des Harmonies",
        "number": "",
        "apartment": "",
        "floor": "",
        "additional": "",
        "infos": "",
        "city": "Cran-Gevrier",
        "zipcode": 74960,
        "coordinates": [6.1047809, 45.9059544]
      }
    },
    {
      "_id": "575c41279675c3f0bb344f81",
      "name": "Maison",
      "description": "Mon petit chez moi",
      "picture": "http://192.168.175.2:5000/foodkeepers/foodkeeper.jpg",
      "location": {
        "street": "10 Avenue des Harmonies",
        "number": "",
        "apartment": "",
        "floor": "",
        "additional": "",
        "infos": "",
        "city": "Cran-Gevrier",
        "zipcode": 74960,
        "coordinates": [6.1047809, 45.9059544]
      }
    },
    {
      "_id": "575c41279675c3f0bb344f82",
      "name": "Maison",
      "description": "Mon petit chez moi",
      "picture": "http://192.168.175.2:5000/foodkeepers/foodkeeper.jpg",
      "location": {
        "street": "3 Rue des Tisserands",
        "number": "",
        "apartment": "",
        "floor": "",
        "additional": "",
        "infos": "",
        "city": "Cran-Gevrier",
        "zipcode": 74960,
        "coordinates": [6.1052424, 45.9064141]
      }
    },
    {
      "_id": "575c41279675c3f0bb344f83",
      "name": "Maison",
      "description": "Mon petit chez moi",
      "picture": "http://192.168.175.2:5000/foodkeepers/foodkeeper.jpg",
      "location": {
        "street": "2 Passage des Calicots",
        "number": "",
        "apartment": "",
        "floor": "",
        "additional": "",
        "infos": "",
        "city": "Cran-Gevrier",
        "zipcode": 74960,
        "coordinates": [6.105255, 45.9062578]
      }
    }
  ]
}
